[
	{
		"id": 1,
		"slug": "info",
		"name": "Infotält",
		"lng": 14.134385999313892,
		"lat": 55.979798511431689
	},
	{
		"id": 2,
		"slug": "listening_ears",
		"name": "Listening Ears",
		"lng": 14.134016331265492,
		"lat": 55.979815497779612
	},
	{
		"id": 3,
		"slug": "bibliotek",
		"name": "Bibliotek",
		"lng": 14.133602682364456,
		"lat": 55.979693174712395
	},
	{
		"id": 4,
		"slug": "andlighetsomrade",
		"name": "Andlighetsområde",
		"lng": 14.133814486214549,
		"lat": 55.979729798031698
	},
	{
		"id": 5,
		"slug": "forelasningstalt",
		"name": "Föreläsningstält",
		"lng": 14.1333264213138,
		"lat": 55.97974588243288
	},
	{
		"id": 6,
		"slug": "cafe_int_gruppen",
		"name": "Café Internationella Gruppen",
		"lng": 14.13305643653784,
		"lat": 55.979524014078862
	},
	{
		"id": 7,
		"slug": "dansbanan",
		"name": "Dansbanan",
		"lng": 14.133237481282917,
		"lat": 55.979242507178213
	},
	{
		"id": 8,
		"slug": "spelarkad",
		"name": "Spelarkad",
		"lng": 14.133372664514489,
		"lat": 55.979035905337426
	},
	{
		"id": 9,
		"slug": "josbar",
		"name": "Josbar",
		"lng": 14.133750677961949,
		"lat": 55.979200649776246
	},
	{
		"id": 10,
		"slug": "radiostudion",
		"name": "Radiostudion",
		"lng": 14.134395290933448,
		"lat": 55.979626496970241
	},
	{
		"id": 11,
		"slug": "klattring",
		"name": "Klättring",
		"lng": 14.134709905155816,
		"lat": 55.979615826832323
	},
	{
		"id": 12,
		"slug": "folkhogskolan",
		"name": "Folkhögskolan",
		"lng": 14.134707299076785,
		"lat": 55.979456695663885
	},
	{
		"id": 13,
		"slug": "scoutmuseet",
		"name": "Scoutmuseet",
		"lng": 14.13477895912246,
		"lat": 55.979314529656314
	},
	{
		"id": 14,
		"slug": "hantverkstalt",
		"name": "Hantverkstält",
		"lng": 14.134234009068011,
		"lat": 55.97897792633006
	},
	{
		"id": 15,
		"slug": "toalett_dusch",
		"name": "Toalett/Dusch",
		"lng": 14.133032113040791,
		"lat": 55.980732147929309
	},
	{
		"id": 16,
		"slug": "food_house",
		"name": "Food House",
		"lng": 14.134828599791419,
		"lat": 55.978977883115405
	},
	{
		"id": 17,
		"slug": "sparbanken",
		"name": "Sparbanken",
		"lng": 14.133490955952775,
		"lat": 55.978618957237096
	},
	{
		"id": 18,
		"slug": "fairtrade",
		"name": "Fairtrade",
		"lng": 14.133940245823972,
		"lat": 55.978535944182639
	},
	{
		"id": 19,
		"slug": "scoutshop",
		"name": "Scoutshop",
		"lng": 14.135512561731156,
		"lat": 55.979013579900894
	},
	{
		"id": 20,
		"slug": "slanor_1",
		"name": "Slanförråd 1",
		"lng": 14.128550098551049,
		"lat": 55.980534369644815
	},
	{
		"id": 21,
		"slug": "slanor_2",
		"name": "Slanförråd 2",
		"lng": 14.135993637054094,
		"lat": 55.979637872490969
	},
	{
		"id": 22,
		"slug": "slanor_3",
		"name": "Slanförråd 3",
		"lng": 14.140291614519272,
		"lat": 55.983234563341902
	},
	{
		"id": 23,
		"slug": "toalett_dusch",
		"name": "Toalett/Dusch",
		"lng": 14.134616818553088,
		"lat": 55.980770386964956
	},
	{
		"id": 24,
		"slug": "toalett_dusch",
		"name": "Toalett/Dusch",
		"lng": 14.135066208862833,
		"lat": 55.980856319054034
	},
	{
		"id": 25,
		"slug": "toalett_dusch",
		"name": "Toalett/Dusch",
		"lng": 14.135489332964559,
		"lat": 55.980940122177778
	},
	{
		"id": 26,
		"slug": "toalett_dusch",
		"name": "Toalett/Dusch",
		"lng": 14.135217609218012,
		"lat": 55.980613428196236
	},
	{
		"id": 27,
		"slug": "toalett_dusch",
		"name": "Toalett/Dusch",
		"lng": 14.136206168510645,
		"lat": 55.978714812010274
	},
	{
		"id": 28,
		"slug": "toalett_dusch",
		"name": "Toalett/Dusch",
		"lng": 14.127587539479917,
		"lat": 55.977169236991962
	},
	{
		"id": 29,
		"slug": "toalett_dusch",
		"name": "Toalett/Dusch",
		"lng": 14.128183019161551,
		"lat": 55.978761232411124
	},
	{
		"id": 30,
		"slug": "toalett_dusch",
		"name": "Toalett/Dusch",
		"lng": 14.128276629709946,
		"lat": 55.978747744779049
	},
	{
		"id": 31,
		"slug": "toalett_dusch",
		"name": "Toalett/Dusch",
		"lng": 14.128624783490254,
		"lat": 55.980867456909849
	},
	{
		"id": 32,
		"slug": "toalett_dusch",
		"name": "Toalett/Dusch",
		"lng": 14.128652940313822,
		"lat": 55.980820173391912
	},
	{
		"id": 33,
		"slug": "toalett_dusch",
		"name": "Toalett/Dusch",
		"lng": 14.128650066176757,
		"lat": 55.98076739129877
	},
	{
		"id": 34,
		"slug": "toalett_dusch",
		"name": "Toalett/Dusch",
		"lng": 14.128650634512258,
		"lat": 55.980719494207698
	}
]
