[
	{
		"id": 1,
		"slug": "info",
		"name": "Infotält",
		"lng": 14.134385999313892,
		"lat": 55.979798511431689,
		"icon": "info-circle",
		"iconVariant": "filled",
		"color": "#2563eb"
	},
	{
		"id": 2,
		"slug": "listening_ears",
		"name": "Listening Ears",
		"lng": 14.134016331265492,
		"lat": 55.979815497779612,
		"icon": "ear",
		"iconVariant": "outline",
		"color": "#0891b2"
	},
	{
		"id": 3,
		"slug": "bibliotek",
		"name": "Bibliotek",
		"lng": 14.133602682364456,
		"lat": 55.979693174712395,
		"icon": "books",
		"iconVariant": "outline",
		"color": "#92400e"
	},
	{
		"id": 4,
		"slug": "andlighetsomrade",
		"name": "Andlighetsområde",
		"lng": 14.133814486214549,
		"lat": 55.979729798031698,
		"icon": "flame",
		"iconVariant": "outline",
		"color": "#7c3aed"
	},
	{
		"id": 5,
		"slug": "forelasningstalt",
		"name": "Föreläsningstält",
		"lng": 14.1333264213138,
		"lat": 55.97974588243288,
		"icon": "presentation",
		"iconVariant": "outline",
		"color": "#4f46e5"
	},
	{
		"id": 6,
		"slug": "cafe_int_gruppen",
		"name": "Café Internationella Gruppen",
		"lng": 14.13305643653784,
		"lat": 55.979524014078862,
		"icon": "coffee",
		"iconVariant": "outline",
		"color": "#c2410c"
	},
	{
		"id": 7,
		"slug": "dansbanan",
		"name": "Dansbanan",
		"lng": 14.133237481282917,
		"lat": 55.979242507178213,
		"icon": "music",
		"iconVariant": "outline",
		"color": "#db2777"
	},
	{
		"id": 8,
		"slug": "spelarkad",
		"name": "Spelarkad",
		"lng": 14.133372664514489,
		"lat": 55.979035905337426,
		"icon": "device-gamepad-2",
		"iconVariant": "outline",
		"color": "#16a34a"
	},
	{
		"id": 9,
		"slug": "josbar",
		"name": "Josbar",
		"lng": 14.133750677961949,
		"lat": 55.979200649776246,
		"icon": "beer",
		"iconVariant": "outline",
		"color": "#d97706"
	},
	{
		"id": 10,
		"slug": "radiostudion",
		"name": "Radiostudion",
		"lng": 14.134395290933448,
		"lat": 55.979626496970241,
		"icon": "radio",
		"iconVariant": "outline",
		"color": "#dc2626"
	},
	{
		"id": 11,
		"slug": "klattring",
		"name": "Klättring",
		"lng": 14.134709905155816,
		"lat": 55.979615826832323,
		"icon": "mountain",
		"iconVariant": "outline",
		"color": "#15803d"
	},
	{
		"id": 12,
		"slug": "folkhogskolan",
		"name": "Folkhögskolan",
		"lng": 14.134707299076785,
		"lat": 55.979456695663885,
		"icon": "school",
		"iconVariant": "outline",
		"color": "#e41e86"
	},
	{
		"id": 13,
		"slug": "scoutmuseet",
		"name": "Scoutmuseet",
		"lng": 14.13477895912246,
		"lat": 55.979314529656314,
		"icon": "building",
		"iconVariant": "outline",
		"color": "#57534e"
	},
	{
		"id": 14,
		"slug": "hantverkstalt",
		"name": "Hantverkstält",
		"lng": 14.134234009068011,
		"lat": 55.97897792633006,
		"icon": "hammer",
		"iconVariant": "outline",
		"color": "#b45309"
	},
	{
		"id": 15,
		"slug": "toalett_dusch",
		"name": "Toalett/Dusch",
		"lng": 14.133032113040791,
		"lat": 55.980732147929309,
		"icon": "toilet-paper",
		"iconVariant": "outline",
		"color": "#0369a1",
		"tags": ["wc"]
	},
	{
		"id": 16,
		"slug": "food_house",
		"name": "Food House",
		"lng": 14.134828599791419,
		"lat": 55.978977883115405,
		"icon": "tools-kitchen-2",
		"iconVariant": "outline",
		"color": "#ea580c"
	},
	{
		"id": 17,
		"slug": "sparbanken",
		"name": "Sparbanken",
		"lng": 14.133490955952775,
		"lat": 55.978618957237096,
		"icon": "building-bank",
		"iconVariant": "outline",
		"color": "#15803d"
	},
	{
		"id": 18,
		"slug": "fairtrade",
		"name": "Fairtrade",
		"lng": 14.133940245823972,
		"lat": 55.978535944182639,
		"icon": "leaf",
		"iconVariant": "outline",
		"color": "#16a34a"
	},
	{
		"id": 19,
		"slug": "scoutshop",
		"name": "Scoutshop",
		"lng": 14.135512561731156,
		"lat": 55.979013579900894,
		"icon": "shopping-bag",
		"iconVariant": "outline",
		"color": "#7c3aed"
	},
	{
		"id": 20,
		"slug": "slanor_1",
		"name": "Slanförråd 1",
		"lng": 14.128550098551049,
		"lat": 55.980534369644815,
		"icon": "menu",
		"iconVariant": "outline",
		"color": "#a0522d",
		"tags": ["slanforrad"]
	},
	{
		"id": 21,
		"slug": "slanor_2",
		"name": "Slanförråd 2",
		"lng": 14.135993637054094,
		"lat": 55.979637872490969,
		"icon": "menu",
		"iconVariant": "outline",
		"color": "#a0522d",
		"tags": ["slanforrad"]
	},
	{
		"id": 22,
		"slug": "slanor_3",
		"name": "Slanförråd 3",
		"lng": 14.140291614519272,
		"lat": 55.983234563341902,
		"icon": "menu",
		"iconVariant": "outline",
		"color": "#a0522d",
		"tags": ["slanforrad"]
	},
	{
		"id": 23,
		"slug": "toalett_dusch",
		"name": "Toalett/Dusch",
		"lng": 14.134616818553088,
		"lat": 55.980770386964956,
		"icon": "toilet-paper",
		"iconVariant": "outline",
		"color": "#0369a1",
		"tags": ["wc"]
	},
	{
		"id": 24,
		"slug": "toalett_dusch",
		"name": "Toalett/Dusch",
		"lng": 14.135066208862833,
		"lat": 55.980856319054034,
		"icon": "toilet-paper",
		"iconVariant": "outline",
		"color": "#0369a1",
		"tags": ["wc"]
	},
	{
		"id": 25,
		"slug": "toalett_dusch",
		"name": "Toalett/Dusch",
		"lng": 14.135489332964559,
		"lat": 55.980940122177778,
		"icon": "toilet-paper",
		"iconVariant": "outline",
		"color": "#0369a1",
		"tags": ["wc"]
	},
	{
		"id": 26,
		"slug": "toalett_dusch",
		"name": "Toalett/Dusch",
		"lng": 14.135217609218012,
		"lat": 55.980613428196236,
		"icon": "toilet-paper",
		"iconVariant": "outline",
		"color": "#0369a1",
		"tags": ["wc"]
	},
	{
		"id": 27,
		"slug": "toalett_dusch",
		"name": "Toalett/Dusch",
		"lng": 14.136206168510645,
		"lat": 55.978714812010274,
		"icon": "toilet-paper",
		"iconVariant": "outline",
		"color": "#0369a1",
		"tags": ["wc"]
	},
	{
		"id": 28,
		"slug": "toalett_dusch",
		"name": "Toalett/Dusch",
		"lng": 14.127587539479917,
		"lat": 55.977169236991962,
		"icon": "toilet-paper",
		"iconVariant": "outline",
		"color": "#0369a1",
		"tags": ["wc"]
	},
	{
		"id": 29,
		"slug": "toalett_dusch",
		"name": "Toalett/Dusch",
		"lng": 14.128183019161551,
		"lat": 55.978761232411124,
		"icon": "toilet-paper",
		"iconVariant": "outline",
		"color": "#0369a1",
		"tags": ["wc"]
	},
	{
		"id": 30,
		"slug": "toalett_dusch",
		"name": "Toalett/Dusch",
		"lng": 14.128276629709946,
		"lat": 55.978747744779049,
		"icon": "toilet-paper",
		"iconVariant": "outline",
		"color": "#0369a1",
		"tags": ["wc"]
	},
	{
		"id": 31,
		"slug": "toalett_dusch",
		"name": "Toalett/Dusch",
		"lng": 14.128624783490254,
		"lat": 55.980867456909849,
		"icon": "toilet-paper",
		"iconVariant": "outline",
		"color": "#0369a1",
		"tags": ["wc"]
	},
	{
		"id": 32,
		"slug": "toalett_dusch",
		"name": "Toalett/Dusch",
		"lng": 14.128652940313822,
		"lat": 55.980820173391912,
		"icon": "toilet-paper",
		"iconVariant": "outline",
		"color": "#0369a1",
		"tags": ["wc"]
	},
	{
		"id": 33,
		"slug": "toalett_dusch",
		"name": "Toalett/Dusch",
		"lng": 14.128650066176757,
		"lat": 55.98076739129877,
		"icon": "toilet-paper",
		"iconVariant": "outline",
		"color": "#0369a1",
		"tags": ["wc"]
	},
	{
		"id": 34,
		"slug": "toalett_dusch",
		"name": "Toalett/Dusch",
		"lng": 14.128650634512258,
		"lat": 55.980719494207698,
		"icon": "toilet-paper",
		"iconVariant": "outline",
		"color": "#0369a1",
		"tags": ["wc"]
	}
]
